[{"fax": "(617) 254-2127", "description": "The Brighton division of the BMC serves Allston and Brighton.", "phone": "(617) 782-6540, Press 5", "address": {"city": "Boston", "zip": "02135", "orig_address": "52 Academy Hill Rd., Brighton, MA 02135", "county": "Suffolk County", "state": "MA", "address": "52 Academy Hill Rd"}, "lat": 42.347226, "lng": -71.153556, "name": "Brighton Division, Boston Municipal Court"}, {"fax": "(617) 788-8465", "description": "This court serves the Downtown Boston area, Chinatown, North End, South End through Massachusetts Avenue, West End, and Beacon Hill.", "phone": "(617) 788-8600", "address": {"city": "Boston", "zip": "02114", "orig_address": "24 New Chardon Street, Edward W. Brooke Courthouse, Boston, MA 02114", "county": "Suffolk County", "state": "MA", "address": "24 New Chardon St"}, "lat": 42.362961, "lng": -71.061542, "name": "Central Division, Boston Municipal Court"}, {"fax": "(617) 242-1677", "description": "The Charlestown Division of the Boston Municipal Court serves Charlestown.", "phone": "(617) 242-5400", "address": {"city": "Boston", "zip": "02129", "orig_address": "3 City Square, Charlestown, MA 02129", "county": "Suffolk County", "state": "MA", "address": "3 City Square"}, "lat": 42.371823, "lng": -71.062309, "name": "Charlestown Division, Boston Municipal Court"}, {"fax": "(617) 436-8250 ", "description": "This court serves Dorchester.", "phone": "(617) 288-9500", "address": {"city": "Boston", "zip": "02124", "orig_address": "510 Washington St., Dorchester, MA 02124", "county": "Suffolk County", "state": "MA", "address": "510 Washington St"}, "lat": 42.293957, "lng": -71.071458, "name": "Dorchester Division, Boston Municipal Court"}, {"fax": "(617) 561-4988 ", "description": "This court serves East Boston, Winthrop, Logan Airport, and the Sumner and Callahan Tunnels.", "phone": "(617) 569-7550", "address": {"city": "Boston", "zip": "02128", "orig_address": "37 Meridian St., East Boston, MA 02128", "county": "Suffolk County", "state": "MA", "address": "37 Meridian St"}, "lat": 42.370985, "lng": -71.038727, "name": "East Boston Division, Boston Municipal Court"}, {"fax": "(617) 541-0286", "description": "This court serves Roxbury.", "phone": "(617) 427-7000", "address": {"city": "Boston", "zip": "02119", "orig_address": "85 Warren St., Roxbury, MA 02119", "county": "Suffolk County", "state": "MA", "address": "85 Warren St"}, "lat": 42.327078, "lng": -71.083819, "name": "Roxbury Division, Boston Municipal Court"}, {"fax": "(617) 268-7321", "description": "This court serves South Boston.", "phone": "(617) 268-9292", "address": {"city": "Boston", "zip": "02127", "orig_address": "535 East Broadway, South Boston, MA 02127", "county": "Suffolk County", "state": "MA", "address": "535 E Broadway"}, "lat": 42.335506, "lng": -71.042683, "name": "South Boston Division, Boston Municipal Court"}, {"fax": "(617) 983-0243 ", "description": "This court serves Roxbury.", "phone": "(617) 971-1200", "address": {"city": "Boston", "zip": "02130", "orig_address": "445 Arborway, Jamaica Plain, MA 02130", "county": "Suffolk County", "state": "MA", "address": "445 Arborway"}, "lat": 42.301266, "lng": -71.110182, "name": "Roxbury Division, Boston Municipal Court"}]