[{"fax": "", "description": "The Attleboro District Court serves Attleboro, Mansfield, North Attleboro, and Norton.", "phone": "(508) 222-5900 ", "address": {"city": "Attleboro", "zip": "02703", "orig_address": "88 North Main St., Attleboro, MA 02703", "county": "Bristol County", "state": "MA", "address": "88 N Main St"}, "lat": 41.946249, "lng": -71.287488, "name": "Attleboro District Court"}, {"fax": "(978) 772-5345", "description": "The Ayer District Court serves Ashby, Ayer, Boxborough, Dunstable, Groton, Littleton, Pepperell, Shirley, Townsend, Westford, and Devens Regional Enterprise Zone.", "phone": "(978) 772-2100", "address": {"city": "Ayer", "zip": "01432", "orig_address": "25 East Main St., Ayer, MA 01432", "county": "Middlesex County", "state": "MA", "address": "25 E Main St"}, "lat": 42.557374, "lng": -71.583402, "name": "Ayer District Court"}, {"fax": "", "description": "The Barnstable District Court serves Barnstable, Yarmouth, and Sandwich.", "phone": "(508) 375-6778", "address": {"city": "Barnstable", "zip": "02630", "orig_address": "3195 Main St., P.O. Box 398, Barnstable, MA 02630", "county": "Barnstable County", "state": "MA", "address": "3195 Main St"}, "lat": 41.700346, "lng": -70.304021, "name": "Barnstable District Court"}, {"fax": "(508) 587-6791", "description": "This court serves Abington, Bridgewater, Brockton, East Bridgewater, West Bridgewater, and Whitman.", "phone": "(508) 587-8000", "address": {"city": "Brockton", "zip": "02301", "orig_address": "215 Main St., Brockton, MA 02301", "county": "Plymouth County", "state": "MA", "address": "215 Main St"}, "lat": 42.081684, "lng": -71.020647, "name": "Brockton District Court"}, {"fax": "", "description": "The Brookline District Court serves the town of Brookline.", "phone": "(617) 232-4660", "address": {"city": "Brookline", "zip": "02445", "orig_address": "360 Washington St., Brookline, MA 02445", "county": "Norfolk County", "state": "MA", "address": "360 Washington St"}, "lat": 42.333926, "lng": -71.121861, "name": "Brookline District Court"}, {"fax": "(781) 395-2035", "description": "The Cambridge District Court, also known as Third District Court, serves Cambridge, Arlington, and Belmont.", "phone": "(781) 306-2715", "address": {"city": "Medford", "zip": "02155", "orig_address": "4040 Mystic Valley Parkway, Medford, MA 02155", "county": "Middlesex County", "state": "MA", "address": "4040 Mystic Valley Pkwy"}, "lat": 42.404818, "lng": -71.087248, "name": "Cambridge District Court"}, {"fax": "(617) 660-9215", "description": "This court serves Chelsea and Revere.", "phone": "(617) 660-9200", "address": {"city": "Chelsea", "zip": "02150", "orig_address": "120 Broadway, Chelsea, MA 02150", "county": "Suffolk County", "state": "MA", "address": "120 Broadway"}, "lat": 42.388954, "lng": -71.041463, "name": "Chelsea District Court"}, {"fax": "(413) 594-6187", "description": "This court serves Chicopee.", "phone": "(413) 598-0099", "address": {"city": "Chicopee", "zip": "01020", "orig_address": "30 Church St., Chicopee, MA 01020", "county": "Hampden County", "state": "MA", "address": "30 Church St"}, "lat": 42.157469, "lng": -72.583695, "name": "Chicopee District Court"}, {"fax": "(978) 368-7827", "description": "This court serves Berlin, Bolton, Boylston, Clinton, Harvard, Lancaster, Sterling, and West Boylston.", "phone": "(978) 368-7811", "address": {"city": "Clinton", "zip": "01510", "orig_address": "300 Boylston St., Clinton, MA 01510", "county": "Worcester County", "state": "MA", "address": "300 Boylston St"}, "lat": 42.399335, "lng": -71.686802, "name": "Clinton District Court"}, {"fax": "(978) 371-2945", "description": "This court serves Concord, Carlisle, Lincoln, Lexington, Bedford, Acton, Maynard, and Stow.", "phone": "(978) 369-0500", "address": {"city": "Concord", "zip": "01742", "orig_address": "305 Walden St., Concord, MA 01742", "county": "Middlesex County", "state": "MA", "address": "305 Walden St"}, "lat": 42.453921, "lng": -71.343053, "name": "Concord District Court"}, {"fax": "", "description": "This court serves Dedham, Dover, Medfield, Needham, Norwood, Wellesley, and Westwood.", "phone": "(781) 329-4777", "address": {"city": "Dedham", "zip": "02026", "orig_address": "631 High St., Dedham, MA 02026", "county": "Norfolk County", "state": "MA", "address": "631 High St"}, "lat": 42.248991, "lng": -71.175107, "name": "Dedham District Court"}, {"fax": "", "description": "This court serves Charlton, Dudley, Oxford, Southbridge, Sturbridge, and Webster.", "phone": "(508) 943-7123", "address": {"city": "Dudley", "zip": "01571", "orig_address": "279 West Main St., Dudley, MA 01571", "county": "Worcester County", "state": "MA", "address": "279 W Main St"}, "lat": 42.034256, "lng": -71.923491, "name": "Dudley District Court"}, {"fax": "(508) 885-7623", "description": "This court serves Barre, Brookfield, East Brookfield, Hardwick, Leicester, New Braintree, North Brookfield, Oakham, Paxton, Rutland, Spencer, Warren, and West Brookfield.", "phone": "(508) 885-6305", "address": {"city": "East Brookfield", "zip": "01515", "orig_address": "544 East Main St., East Brookfield, MA 01515", "county": "Worcester County", "state": "MA", "address": "544 E Main St"}, "lat": 42.232418, "lng": -72.030788, "name": "East Brookfield District Court"}, {"fax": "(413) 323-6803", "description": "This court serves Amherst, Belchertown, Granby, Hadley, Pelham, South Hadley, Ware , M.D.C. Quabbin Reservoir, and the Watershed Area.", "phone": "(413) 323-4056", "address": {"city": "Belchertown", "zip": "01007", "orig_address": "205 State St., Route 202, Belchertown, MA 01007", "county": "Hampshire County", "state": "MA", "address": "205 State St"}, "lat": 42.267408, "lng": -72.420881, "name": "Eastern Hampshire District Court"}, {"fax": "", "description": "This court serves Edgartown, Oak Bluffs, Tisbury, West Tisbury, Chilmark, Aquinnah (formerly Gay Head), Gosnold, and Elizabeth Islands.", "phone": "", "address": {"city": "Edgartown", "zip": "02539", "orig_address": "81 Main St., Edgartown, MA 02539", "county": "Dukes County", "state": "MA", "address": "81 Main St"}, "lat": 41.390365, "lng": -70.514702, "name": "Edgartown District Court"}, {"fax": "", "description": "This court serves Fall River, Freetown, Somerset, Swansea, and Westport.", "phone": "", "address": {"city": "Fall River", "zip": "02721", "orig_address": "186 S. Main St., 5th Floor, Fall River, MA 02720", "county": "Bristol County", "state": "MA", "address": "186 S Main St"}, "lat": 41.699454, "lng": -71.15662, "name": "Fall River District Court"}, {"fax": "", "description": "This court serves Bourne, Falmouth, and Mashpee. ", "phone": "(508) 495-1500", "address": {"city": "Falmouth", "zip": "02540", "orig_address": "161 Jones Rd., Falmouth, MA 02540", "county": "Barnstable County", "state": "MA", "address": "161 Jones Rd"}, "lat": 41.561788, "lng": -70.613781, "name": "Falmouth District Court"}, {"fax": "(978) 342-2461", "description": "This court serves Fitchburg and Lunenburg.", "phone": "(978) 345-2111", "address": {"city": "Fitchburg", "zip": "01420", "orig_address": "100 Elm St., Fitchburg, MA 01420", "county": "Worcester County", "state": "MA", "address": "100 Elm St"}, "lat": 42.584589, "lng": -71.801701, "name": "Fitchburg District Court"}, {"fax": "", "description": "This court serves Ashland, Framingham, Holliston, Hopkinton, Sudbury, and Wayland.", "phone": "(508) 875-7461", "address": {"city": "Framingham", "zip": "01702", "orig_address": "600 Concord St., PO Box 1969, Framingham, MA 01701", "county": "Middlesex County", "state": "MA", "address": "600 Concord St"}, "lat": 42.293395, "lng": -71.409619, "name": "Framingham District Court"}, {"fax": "(978) 630-3902", "description": "This court serves Gardner, Hubbardston, Petersham, and Westminster.", "phone": "(978) 632-2373", "address": {"city": "Gardner", "zip": "01440", "orig_address": "108 Matthews St., Gardner, MA 01440", "county": "Worcester County", "state": "MA", "address": "108 Matthews St"}, "lat": 42.589381, "lng": -71.981943, "name": "Gardner District Court"}, {"fax": "(978) 283-8784", "description": "This court serves Essex, Gloucester, and Rockport.", "phone": "(978) 283-2620", "address": {"city": "Gloucester", "zip": "01930", "orig_address": "197 Main St., Gloucester, MA 01930", "county": "Essex County", "state": "MA", "address": "197 Main St"}, "lat": 42.612796, "lng": -70.660932, "name": "Gloucester District Court"}, {"fax": "(413) 774-5328", "description": "This court serves Ashfield, Bernardston, Buckland, Charlemont, Colrain, Conway, Deerfield, Gill, Greenfield, Hawley, Heath, Leyden, Monroe, Montague, Northfield, Rowe, Shelburne, Sunderland, and Whately.", "phone": "(413) 774-5533", "address": {"city": "Greenfield", "zip": "01301", "orig_address": "43 Hope St., Greenfield, MA 01301", "county": "Franklin County", "state": "MA", "address": "43 Hope St"}, "lat": 42.586242, "lng": -72.59881, "name": "Greenfield District Court"}, {"fax": "", "description": "The Haverhill District Court in Haverhill serves Boxford, Bradford, Georgetown, Groveland and Haverhill.", "phone": "(978) 521-7300", "address": {"city": "Haverhill", "zip": "01830", "orig_address": "45 Ginty Boulevard, Haverhill, MA 01831", "county": "Essex County", "state": "MA", "address": "45 Ginty Blvd"}, "lat": 42.775832, "lng": -71.072056, "name": "Haverhill District Court"}, {"fax": "(781) 740-8390", "description": "This court serves Hanover, Hingham, Hull, Norwell, Rockland, and Scituate.", "phone": "(781) 749-7000", "address": {"city": "Hingham", "zip": "02043", "orig_address": "28 George Washington Blvd., Hingham, MA 02043", "county": "Plymouth County", "state": "MA", "address": "28 George Washington Blvd"}, "lat": 42.255677, "lng": -70.8642, "name": "Hingham District Court"}, {"fax": "(413) 533-7165", "description": "This court serves Holyoke.", "phone": "(413) 538-9710", "address": {"city": "Holyoke", "zip": "01040", "orig_address": "20 Court Plaza, Holyoke, MA 01040", "county": "Hampden County", "state": "MA", "address": "20 Court Plz"}, "lat": 42.205833, "lng": -72.607494, "name": "Holyoke District Court"}, {"fax": "(978) 462-5641", "description": "The Ipswich District Court sits in Newburyport and serves Ipswich, Hamilton, Wenham, and Topsfield.", "phone": "(978) 462-2652", "address": {"city": "Newburyport", "zip": "01950", "orig_address": "188 State St., Newburyport, MA 01950", "county": "Essex County", "state": "MA", "address": "188 State St"}, "lat": 42.800114, "lng": -70.875346, "name": "Ipswich District Court"}, {"fax": "", "description": "This court serves Andover, Lawrence, Methuen, and North Andover.", "phone": "(978) 687-7184", "address": {"city": "Lawrence", "zip": "01840", "orig_address": "Fenton Judicial Center, 2 Appleton St., Lawrence, MA 01840", "county": "Essex County", "state": "MA", "address": "2 Appleton St"}, "lat": 42.706667, "lng": -71.160436, "name": "Lawrence District Court"}, {"fax": "(978) 537-3970", "description": "This court serves Holden, Princeton, and Leominster.", "phone": "(978) 537-3722", "address": {"city": "Leominster", "zip": "01453", "orig_address": "25 School St., Leominster, MA 01453", "county": "Worcester County", "state": "MA", "address": "25 School St"}, "lat": 42.527921, "lng": -71.761283, "name": "Leominster District Court"}, {"fax": "(978) 937-2486", "description": "This court serves Billerica, Chelmsford, Dracut, Lowell, Tewksbury, and Tyngsboro.", "phone": "(978) 459-4101", "address": {"city": "Lowell", "zip": "01852", "orig_address": "41 Hurd St., Lowell, MA 01852", "county": "Middlesex County", "state": "MA", "address": "41 Hurd St"}, "lat": 42.642691, "lng": -71.307535, "name": "Lowell District Court"}, {"fax": "(781) 598-4350", "description": "This court serves Lynn, Marblehead, Nahant, Saugus, and Swampscott.", "phone": "(781) 598-5200", "address": {"city": "Lynn", "zip": "01901", "orig_address": "580 Essex St., Lynn, MA 01901", "county": "Essex County", "state": "MA", "address": "580 Essex St"}, "lat": 42.465239, "lng": -70.949849, "name": "Lynn District Court"}, {"fax": "(781) 322-0169", "description": "This court serves Malden, Melrose, Everett, and Wakefield.", "phone": "(781) 322-7500", "address": {"city": "Malden", "zip": "02148", "orig_address": "89 Summer St., Malden, MA 02148", "county": "Middlesex County", "state": "MA", "address": "89 Summer St"}, "lat": 42.429973, "lng": -71.073865, "name": "Malden District Court"}, {"fax": "(508) 485-1575", "description": "This court serves Marlborough and Hudson.", "phone": "(508) 485-3700", "address": {"city": "Marlboro", "zip": "01752", "orig_address": "45 Williams St., Marlborough, MA 01752", "county": "Middlesex County", "state": "MA", "address": "45 Williams St"}, "lat": 42.338688, "lng": -71.563861, "name": "Marlborough District Court"}, {"fax": "(508) 634-8477", "description": "This court serves Mendon, Upton, Hopedale, Milford, and Bellingham.", "phone": "(508) 473-1260", "address": {"city": "Milford", "zip": "01757", "orig_address": "161 West St., Milford, MA 01757", "county": "Worcester County", "state": "MA", "address": "161 West St"}, "lat": 42.140685, "lng": -71.538166, "name": "Milford District Court"}, {"fax": "(508) 325-5759", "description": "This court serves Nantucket County.", "phone": "(508) 228-0460", "address": {"city": "Nantucket", "zip": "02554", "orig_address": "16 Broad St., Nantucket, MA 02554", "county": "Nantucket County", "state": "MA", "address": "16 Broad St"}, "lat": 41.285066, "lng": -70.099046, "name": "Nantucket District Court"}, {"fax": "(508) 990-8094 ", "description": "This court serves Acushnet, Dartmouth, Fairhaven, Freetown, New Bedford, and Westport.", "phone": "(508) 999-9700", "address": {"city": "New Bedford", "zip": "02740", "orig_address": "75 N. Sixth St., New Bedford, MA 02740", "county": "Bristol County", "state": "MA", "address": "75 N 6th St"}, "lat": 41.637226, "lng": -70.928678, "name": "New Bedford District Court"}, {"fax": "(978) 465-6471", "description": "This court serves Amesbury, Merrimac, Newbury, Newburyport, Rowley, Salisbury, and West Newbury.\r\n\r\n", "phone": "(978) 462-2652", "address": {"city": "Newburyport", "zip": "01950", "orig_address": "188 State St., Newburyport, MA 01950", "county": "Essex County", "state": "MA", "address": "188 State St"}, "lat": 42.800114, "lng": -70.875346, "name": "Newburyport District Court"}, {"fax": "(617) 243-7291", "description": "This court serves Newton.", "phone": "(617) 244-3600", "address": {"city": "Newton", "zip": "02465", "orig_address": "1309 Washington St., West Newton, MA 02465", "county": "Middlesex County", "state": "MA", "address": "1309 Washington St"}, "lat": 42.3493, "lng": -71.227032, "name": "Newton District Court"}, {"fax": "(413) 586-1980", "description": "This court serves Chesterfield, Cummington, Easthampton, Goshen, Hatfield, Huntington, Middlefield, Northampton, Plainfield, Southampton, Westhampton, Williamsburg, and Worthington.", "phone": "(413) 584-7400", "address": {"city": "Northampton", "zip": "01060", "orig_address": "15 Gothic St., Northampton, MA 01060", "county": "Hampshire County", "state": "MA", "address": "15 Gothic St"}, "lat": 42.319802, "lng": -72.63122, "name": "Northampton District Court"}, {"fax": "(413) 664-7209", "description": "The Northern Berkshire District Court in North Adams serves Adams, Cheshire, Clarksburg, Florida, Hancock, New Ashford, North Adams, Savoy, Williamstown, and Windsor. Note: Pittsfield Division Exercising Concurrent Jurisdiction in Windsor and Hancock", "phone": "(413) 663-5339", "address": {"city": "North Adams", "zip": "01247", "orig_address": "111 Holden St., North Adams, MA 01247", "county": "Berkshire County", "state": "MA", "address": "111 N Holden St"}, "lat": 42.702671, "lng": -73.111663, "name": "Northern Berkshire District Court"}, {"fax": "(978) 544-5204", "description": "This court serves Athol, Erving, Leverett, New Salem, Orange, Shutesbury, Warwick, and Wendell.", "phone": "(978) 544-8277", "address": {"city": "Orange", "zip": "01364", "orig_address": "1 Court Square, Orange, MA 01364", "county": "Franklin County", "state": "MA", "address": "1 Court Square"}, "lat": 42.595961, "lng": -72.332109, "name": "Orange District Court"}, {"fax": "(508) 240-1150", "description": "This court serves Brewster, Chatham, Dennis, Eastham, Orleans, Harwich, Truro, Wellfleet, and Provincetown.", "phone": "(508) 255-4700", "address": {"city": "Orleans", "zip": "02653", "orig_address": "237 Rock Harbor Road, Orleans, MA 02653", "county": "Barnstable County", "state": "MA", "address": "237 Rock Harbor Rd"}, "lat": 41.798984, "lng": -69.988434, "name": "Orleans District Court"}, {"fax": "(413) 283-6775", "description": "This court serves Brimfield, East Longmeadow, Hampden, Holland, Ludlow, Monson, Palmer, Wales, and Wilbraham.", "phone": "(413) 283-8916", "address": {"city": "Palmer", "zip": "01069", "orig_address": "235 Sykes St., Suite 3, Palmer, MA 01069", "county": "Hampden County", "state": "MA", "address": "235 Sykes St"}, "lat": 42.187918, "lng": -72.347416, "name": "Palmer District Court"}, {"fax": "(978) 531-8524", "description": "This court serves Lynnfield and Peabody.", "phone": "(978) 532-3100", "address": {"city": "Peabody", "zip": "01960", "orig_address": "1 Lowell St., Peabody, MA 01960", "county": "Essex County", "state": "MA", "address": "1 Lowell St"}, "lat": 42.526578, "lng": -70.927627, "name": "Peabody District Court"}, {"fax": "(413) 499-7327", "description": "This court serves Becket, Dalton, Hancock, Hinsdale, Lanesborough, Lenox, Peru, Pittsfield, Richmond, Washington, and Windsor.", "phone": "(413) 499-0558", "address": {"city": "Pittsfield", "zip": "01201", "orig_address": "24 Wendell Ave., P.O. Box 875, Pittsfield, MA 01202", "county": "Berkshire County", "state": "MA", "address": "24 Wendell Ave"}, "lat": 42.447258, "lng": -73.25267, "name": "Pittsfield District Court"}, {"fax": "(508) 830-9303", "description": "This court serves Duxbury, Halifax, Hanson, Kingston, Marshfield, Pembroke, Plymouth, and Plympton.", "phone": "(508) 747-8400", "address": {"city": "Plymouth", "zip": "02360", "orig_address": "52 Obery St., Plymouth, MA 02360", "county": "Plymouth County", "state": "MA", "address": "52 Obery St"}, "lat": 41.939928, "lng": -70.649762, "name": "Plymouth District Court"}, {"fax": "(617) 472-1924", "description": "This court serves Braintree, Cohasset, Holbrook, Milton, Quincy, Randolph, and Weymouth.", "phone": "(617) 471-1650", "address": {"city": "Quincy", "zip": "02169", "orig_address": "1 Dennis Ryan Parkway, Quincy, MA 02169", "county": "Norfolk County", "state": "MA", "address": "1 Dennis Ryan Pkwy"}, "lat": 42.249601, "lng": -70.999763, "name": "Quincy District Court"}, {"fax": "", "description": "This court serves Beverly, Danvers, Manchester by the Sea, Middleton, and Salem.", "phone": "(978) 744-1167", "address": {"city": "Salem", "zip": "01970", "orig_address": "56 Federal St., Salem, MA 01970", "county": "Essex County", "state": "MA", "address": "56 Federal St"}, "lat": 42.523382, "lng": -70.896639, "name": "Salem District Court"}, {"fax": "(617) 776-2111", "description": "This court serves Medford and Somerville. ", "phone": "(617) 666-8000", "address": {"city": "Somerville", "zip": "02145", "orig_address": "175 Fellsway, Somerville, MA 02145", "county": "Middlesex County", "state": "MA", "address": "175 Fellsway"}, "lat": 42.395463, "lng": -71.08442, "name": "Somerville District Court"}, {"fax": "(413) 528-0757", "description": "The Southern Berkshire District Court in Great Barrington serves Alford, Becket, Egremont, Great Barrington, Lee, Lenox, Monterey, Mt. Washington, New Marlborough, Otis, Sandisfield, Sheffield, Stockbridge, Tyringham, and West Stockbridge. Pittsfield District Court exercises concurrent jurisdiction in Becket and Lenox.", "phone": "(413) 528-3520", "address": {"city": "Great Barrington", "zip": "01230", "orig_address": "9 Gilmore Ave., Great Barrington, MA 01230", "county": "Berkshire County", "state": "MA", "address": "9 Gilmore Ave"}, "lat": 42.200481, "lng": -73.353653, "name": "Southern Berkshire District Court"}, {"fax": "", "description": "This court serves Longmeadow, Springfield, and West Springfield. The courthouse is officially named the Roderick J. Ireland Courthouse. ", "phone": "(413) 748-8600", "address": {"city": "Springfield", "zip": "01103", "orig_address": "50 State St., P.O. Box 2421, Springfield, MA 01102", "county": "Hampden County", "state": "MA", "address": "50 State St"}, "lat": 42.09974, "lng": -72.589233, "name": "Springfield District Court"}, {"fax": "(781) 341-8744", "description": "This court serves Avon, Canton, Sharon and Stoughton.", "phone": "(781) 344-2131", "address": {"city": "Stoughton", "zip": "02072", "orig_address": "1288 Central St., Stoughton, MA 02072", "county": "Norfolk County", "state": "MA", "address": "1288 Central St"}, "lat": 42.13315, "lng": -71.111394, "name": "Stoughton District Court"}, {"fax": "(508) 824-2282", "description": "This court serves Berkley, Dighton, Easton, Raynham, Rehoboth, Seekonk, and Taunton.", "phone": "(508) 977-6000", "address": {"city": "Taunton", "zip": "02780", "orig_address": "40 Broadway, Taunton, MA 02780", "county": "Bristol County", "state": "MA", "address": "40 Broadway"}, "lat": 41.903226, "lng": -71.094154, "name": "Taunton District Court"}, {"fax": "(508) 278-2929", "description": "This court serves Blackstone, Douglas, Millville, Northbridge, Sutton and Uxbridge.", "phone": "(508) 278-2454", "address": {"city": "Douglas", "zip": "01516", "orig_address": "261 South Main Street, Uxbridge, MA 01569", "county": "Worcester County", "state": "MA", "address": "261 S E Main St"}, "lat": 42.063291, "lng": -71.623049, "name": "Uxbridge District Court"}, {"fax": "", "description": "This court serves Waltham, Watertown and Weston. ", "phone": "(781) 894-4500", "address": {"city": "Waltham", "zip": "02452", "orig_address": "38 Linden Street, Waltham, MA 02452", "county": "Middlesex County", "state": "MA", "address": "38 Linden St"}, "lat": 42.378726, "lng": -71.22451, "name": "Waltham District Court"}, {"fax": "(508) 291-6376", "description": "This court serves Carver, Lakeville, Marion, Mattapoisett, Middleboro, Rochester and Wareham.", "phone": "(508) 295-8300", "address": {"city": "Wareham", "zip": "02576", "orig_address": "2200 Cranberry Highway, Wareham, MA 02576", "county": "Plymouth County", "state": "MA", "address": "2200 Cranberry Hwy"}, "lat": 41.801576, "lng": -70.771997, "name": "Wareham District Court"}, {"fax": "(508) 366-8268", "description": "This court serves Grafton, Northborough, Shrewsbury, Southborough and Westborough.", "phone": "(508) 366-8266", "address": {"city": "Westborough", "zip": "01581", "orig_address": "186 Oak Street, Westborough, MA 01581", "county": "Worcester County", "state": "MA", "address": "186 Oak St"}, "lat": 42.285919, "lng": -71.628423, "name": "Westborough District Court"}, {"fax": "(413) 568-4863", "description": "This court serves Agawam, Blandford, Chester, Granville, Montgomery, Russell, Southwick, Tolland and Westfield.", "phone": "(413) 568-8946", "address": {"city": "Westfield", "zip": "01085", "orig_address": "224 Elm Street, Westfield, MA 01085", "county": "Hampden County", "state": "MA", "address": "224 Elm St"}, "lat": 42.125281, "lng": -72.748275, "name": "Westfield District Court"}, {"fax": "(978) 632-3580", "description": "The Winchendon District Court sits in Gardner and serves Ashburnham, Phillipston, Royalston, Templeton and Winchendon.", "phone": "(978) 632-6326", "address": {"city": "Gardner", "zip": "01440", "orig_address": "108 Matthews Street, Gardner District Court, Gardner, MA 01440", "county": "Worcester County", "state": "MA", "address": "108 Matthews Rd"}, "lat": 42.589381, "lng": -71.981943, "name": "Winchendon District Court"}, {"fax": "(781) 933-4404", "description": "This court serves  Burlington, North Reading, Reading, Stoneham, Wilmington, Winchester, and Woburn.", "phone": "(781) 935-4000", "address": {"city": "Woburn", "zip": "01801", "orig_address": "30 Pleasant Street, Woburn, MA 01801", "county": "Middlesex County", "state": "MA", "address": "30 Pleasant St"}, "lat": 42.478934, "lng": -71.153276, "name": "Woburn District Court"}, {"fax": "", "description": "The Worcester District Court serves Auburn, Millbury, and Worcester. ", "phone": "(508) 831-2010", "address": {"city": "Worcester", "zip": "01608", "orig_address": "225 Main St., Worcester, MA 01608", "county": "Worcester County", "state": "MA", "address": "225 Main St"}, "lat": 42.26744, "lng": -71.799856, "name": "Worcester District Court"}, {"fax": "", "description": "This court serves Foxborough, Franklin, Medway, Millis, Norfolk, Plainville, Walpole, and Wrentham.", "phone": "(508) 384-3106", "address": {"city": "Wrentham", "zip": "02093", "orig_address": "60 East St., Wrentham, MA 02093", "county": "Norfolk County", "state": "MA", "address": "60 East St"}, "lat": 42.065131, "lng": -71.325283, "name": "Wrentham District Court"}]