[{"fax": "", "description": "The Dudley session of the Central Division of the Housing Court serves Charlton, Dudley, Oxford, Southbridge, Sturbridge, and Webster", "phone": "(508) 831-2050 ", "address": {"city": "Dudley", "zip": "01571", "orig_address": "279 West Main St., Dudley District Court, Dudley, MA 01571", "county": "Worcester County", "state": "MA", "address": "279 W Main St"}, "lat": 42.034256, "lng": -71.923491, "name": "Central Housing Court - Dudley Session"}, {"fax": "", "description": "The Leominster session of the Central Division of the Housing Court serves Ashburnham, Athol, Fitchburg, Gardner, Holden, Hubbardston, Leominster, Lunenberg, Petersham, Phillipston, Princeton, Royalston, Templeton, Westminster, and Winchendon.", "phone": "(508) 831-2050 ", "address": {"city": "Leominster", "zip": "01453", "orig_address": "25 School St., Leominster District Court, Leominster, MA 01453", "county": "Worcester County", "state": "MA", "address": "25 School St"}, "lat": 42.527908, "lng": -71.761178, "name": "Central Housing Court - Leominster Session"}, {"fax": "", "description": "The Marlborough session of the Central Division of the Housing Court serves Ashland, Berlin, Bolton, Framingham, Harvard, Holliston, Hopkinton, Hudson, Marlborough, Natick, Northborough, Sherborn, Southborough, Sudbury, Wayland, and Westborough. ", "phone": "(508) 831-2050 ", "address": {"city": "Marlboro", "zip": "01752", "orig_address": "45 Williams St., Marlborough District Court, Marlborough, MA 01752", "county": "Middlesex County", "state": "MA", "address": "45 Williams St"}, "lat": 42.33866, "lng": -71.563783, "name": "Central Housing Court - Marlborough Session"}, {"fax": "", "description": "The Worcester session of the Central Division of the Housing Court serves\u00a0Auburn, Barre, Bellingham, Blackstone, Boylston, Brookfield, Clinton, Douglas, East Brookfield, Grafton, Hardwick, Hopedale, Lancaster, Leicester, Mendon, Milford, Millbury, Millville, New Braintree, Northbridge, North Brookfield, Oakham, Oxford, Paxton, Rutland, Shrewsbury, Spencer, Sterling, Sutton, Upton, Uxbridge, Warren, West Boylston, and Worcester.", "phone": "(508) 831-2050", "address": {"city": "Worcester", "zip": "01608", "orig_address": "225 Main St., Worcester, MA 01608", "county": "Worcester County", "state": "MA", "address": "225 Main St"}, "lat": 42.26744, "lng": -71.799856, "name": "Central Housing Court - Worcester Session"}, {"fax": "", "description": "The Eastern Division of the Housing Court serves Arlington, Belmont, Boston, Brookline, Cambridge, Chelsea, Medford, Newton, Revere, Somerville and Winthrop. \r\n\r\nEastern Division - Middlesex Session - Cambridge District Court in Medford\r\nFridays is the regular weekly sitting\r\nThis sitting will serve Cambridge, Arlington, Belmont, Somerville, and Medford.", "phone": "(617) 788-8485", "address": {"city": "Boston", "zip": "02114", "orig_address": "24 New Chardon St., Boston, MA 02114", "county": "Suffolk County", "state": "MA", "address": "24 New Chardon St"}, "lat": 42.362961, "lng": -71.061542, "name": "Eastern Housing Court"}, {"fax": "(508) 894-4168", "description": "The Metro South Housing Court - Brockton Session serves Abington, Avon, Bellingham, Braintree, Bridgewater, Brockton, Canton, Cohasset, Dedham, Dover, East Bridgewater, Eastham, Foxborough, Franklin, Holbrook, Medfield, Medway, Millis, Milton, Needham, Norfolk, Norwood, Plainville, Quincy, Randolph, Sharon, Stoughton, Walpole, Wellesley, West Bridgewater, Westwood, Weymouth, Whitman, and Wrentham.\r\n\r\nBeginning on August 6, the Metro South Housing Court - Brockton Session will no longer serve Accord, Assinippi, Hanover, Hingham, Hull, Humarock, Norwell, Rockland, and Scituate for summary process cases and all other civil and criminal cases.", "phone": "(508) 894-4170", "address": {"city": "Brockton", "zip": "02301", "orig_address": "215 Main St., Suite 160, Brockton, MA 02303", "county": "Plymouth County", "state": "MA", "address": "215 Main St"}, "lat": 42.081684, "lng": -71.020647, "name": "Metro South Housing Court - Brockton Session "}, {"fax": "(508) 894-4166", "description": "This court serves all cities and towns in Norfolk County. The Housing Court is on the second floor of the building. The Canton Session is only available on Fridays. Filings cannot be accepted in Canton at any other time. Please do not file paperwork with the Register's Office. ", "phone": "(508) 894-4170", "address": {"city": "Canton", "zip": "02021", "orig_address": "35 Shawmut Road, Canton, MA 02021", "county": "Norfolk County", "state": "MA", "address": "35 Shawmut Rd"}, "lat": 42.189243, "lng": -71.152641, "name": "Metro South Housing Court - Canton Session "}, {"fax": "", "description": "The Lawrence Session of the Northeast Housing Court serves Amesbury, Andover, Boxford, Georgetown, Groveland, Haverhill, Lawrence, Merrimac, Methuen, Newbury, Newburyport, North Andover, Rowley, Salisbury, and West Newbury.  ", "phone": "(978) 689-7833", "address": {"city": "Lawrence", "zip": "01840", "orig_address": "2 Appleton St., 2nd Floor, Lawrence, MA 01840", "county": "Essex County", "state": "MA", "address": "2 Appleton St"}, "lat": 42.706667, "lng": -71.160436, "name": "Northeast Housing Court - Lawrence Session"}, {"fax": "", "description": "The Lowell session of the Northeast Housing Court serves Acton, Ashby, Ayer, Billerica, Boxborough, Carlisle, Chelmsford, Devens, Dracut, Dunstable, Groton, Littleton, Lowell, Maynard, Pepperell, Shirley, Stow, Tewksbury, Townsend, Tyngsborough, and Westford.", "phone": "(978) 689-7833", "address": {"city": "Lowell", "zip": "01852", "orig_address": "360 Gorham St., Lowell, MA 01852", "county": "Middlesex County", "state": "MA", "address": "360 Gorham St"}, "lat": 42.637493, "lng": -71.308387, "name": "Northeast Housing Court - Lowell Session"}, {"fax": "", "description": "The Lynn session of the Northeast Housing Court is located in Salem and serves Lynn, Nahant, and Saugus.", "phone": "(978) 689-7833", "address": {"city": "Salem", "zip": "01970", "orig_address": "56 Federal St. , Salem, MA 01970", "county": "Essex County", "state": "MA", "address": "56 Federal St"}, "lat": 42.464841, "lng": -70.948987, "name": "Northeast Housing Court - Lynn Session"}, {"fax": "", "description": "The Salem session of the Northeast Housing Court serves Beverly, Danvers, Essex, Gloucester, Hamilton, Ipswich, Lynnfield, Manchester-by-The-Sea, Marblehead, Middleton, Peabody, Rockport, Salem, Swampscott, Topsfield, and Wenham.", "phone": "(978) 825-4920", "address": {"city": "Salem", "zip": "01970", "orig_address": "56 Federal St. , Salem, MA 01970", "county": "Essex County", "state": "MA", "address": "56 Federal St"}, "lat": 42.523382, "lng": -70.896639, "name": "Northeast Housing Court - Salem Session"}, {"fax": "(508) 672-9621", "description": "The Fall River Session of the Southeast Housing Court serves Freetown, Westport, Fall River, Somerset and Swansea.", "phone": "(508) 677-1505", "address": {"city": "Fall River", "zip": "02720", "orig_address": "289 Rock St., Fall River, MA 02720", "county": "Bristol County", "state": "MA", "address": "289 Rock St"}, "lat": 41.70553, "lng": -71.151698, "name": "Southeast Housing Court - Fall River Session"}, {"fax": "(508) 994-7538", "description": "The New Bedford Session of the Southeast Housing Court serves Acushnet, Dartmouth, Fairhaven, Freetown, New Bedford and Westport.", "phone": "(508) 994-0156", "address": {"city": "New Bedford", "zip": "02746", "orig_address": "139 Hathaway Road, New Bedford, MA 02746", "county": "Bristol County", "state": "MA", "address": "139 Hathaway Rd"}, "lat": 41.660616, "lng": -70.946563, "name": "Southeast Housing Court - New Bedford Session"}, {"fax": "(508) 747-2017", "description": "The Plymouth session of the Southeast Housing Court serves Aquinnah, Barnstable, Bourne, Brewster, Carver, Chatham, Chilmark, Dennis, Duxbury, Edgartown, Falmouth, Halifax, Hanson, Harwich, Kingston, Lakeville, Marion, Marshfield, Mashpee, Mattapoisett, Middleborough, Nantucket, Oak Bluffs, Pembroke, Plymouth, Plympton, Provincetown, Rochester, Sandwich, and Wareham.\r\n\r\nBeginning on August 6, the Plymouth session of the Southeast Housing Court will also serve Accord, Assinippi, Hanover, Hingham, Hull, Humarock, Norwell, Rockland, and Scituate for summary process cases and all other civil and criminal cases. ", "phone": "(508) 747-8550", "address": {"city": "Plymouth", "zip": "02360", "orig_address": "52 Obery St., Plymouth, MA 02360", "county": "Plymouth County", "state": "MA", "address": "52 Obery St"}, "lat": 41.939928, "lng": -70.649762, "name": "Southeast Housing Court - Plymouth Session"}, {"fax": "(508) 977-0485", "description": "The Taunton Session of the Southeast Housing Court serves Attleboro, Berkley, Dighton, Easton, Mansfield, North Attleborough, Norton, Raynham, Rehoboth, Seekonk and Taunton.", "phone": "(508) 977-4950", "address": {"city": "Taunton", "zip": "02780", "orig_address": "40 Broadway, Taunton, MA 02780", "county": "Bristol County", "state": "MA", "address": "40 Broadway"}, "lat": 41.903226, "lng": -71.094154, "name": "Southeast Housing Court - Taunton Session"}, {"fax": "(413) 732-4607", "description": "The Western Housing Court in Greenfield serves Ashfield, Bernardston, Buckland, Charlemont, Colrain, Conway, Deerfield, Erving, Gill, Greenfield, Hawley, Heath, Leverett, Leyden, Monroe, Montague, New Salem, Northfield, Orange, Rowe, Shelburne, Shutesbury, Sunderland, Warwick, Wendell and Whately.", "phone": "(413) 748-7838", "address": {"city": "Greenfield", "zip": "01301", "orig_address": "43 Hope St., Greenfield, MA 01301", "county": "Franklin County", "state": "MA", "address": "43 Hope St"}, "lat": 42.586242, "lng": -72.59881, "name": "Western Housing Court - Greenfield Session"}, {"fax": "(413) 732-4607 ", "description": "The Hadley session of the Western Housing Court serves Amherst, Belchertown, Chesterfield, Cummington, Easthampton, Goshen, Granby, Hadley, Hatfield, Huntington, Middlefield, Northampton, Pelham, Plainfield, South Hadley, Southampton, Ware, Westhampton, Williamsburg and Worthington.", "phone": "(413) 748-7838 ", "address": {"city": "Hadley", "zip": "01035", "orig_address": "116 Russell St., Hadley, MA 01035", "county": "Hampshire County", "state": "MA", "address": "116 Russell St"}, "lat": 42.342487, "lng": -72.594371, "name": "Western Housing Court - Hadley Session"}, {"fax": "(413) 732-4607 ", "description": "The Pittsfield session of the Western Housing Court serves cities and towns in Berkshire County on Wednesday mornings.", "phone": "(413) 748-7838 ", "address": {"city": "Pittsfield", "zip": "01201", "orig_address": "76 East St. , Room 2, Pittsfield, MA 01201", "county": "Berkshire County", "state": "MA", "address": "76 East St"}, "lat": 42.447538, "lng": -73.252509, "name": "Western Housing Court - Pittsfield Session"}, {"fax": "(413) 732-4607", "description": "The Western Housing Court in Springfield serves Agawam, Blandford, Brimfield, Chester, Chicopee, East Longmeadow, Granville, Hampden, Holland, Holyoke, Longmeadow, Ludlow, Monson, Montgomery, Palmer, Russell, Southwick, Springfield, Tolland, Wales, West Springfield, Westfield and Wilbraham.", "phone": "(413) 748-7838", "address": {"city": "", "zip": "", "orig_address": "37 Elm Street, P.O. Box 559, Springfield, MA 01102", "county": "", "state": "", "address": ""}, "lat": 42.100362, "lng": -72.588744, "name": "Western Housing Court - Springfield Session"}]