[{"phone": "(508) 375-6684", "fax": "", "has_po_box": false, "name": "Barnstable County Superior Court", "address": {"city": "Barnstable", "zip": "02630", "orig_address": "3195 Main St., P.O. Box 425,  Barnstable, MA 02630", "county": "", "state": "MA", "address": "3195 Main St., P.O. Box 425,  Barnstable, MA 02630"}, "lat": 41.700346, "lng": -70.304021, "description": "This court serves the cities and towns of Barnstable County."}, {"phone": "(413) 499-7487", "fax": "(413) 442-9190", "has_po_box": false, "name": "Berkshire County Superior Court", "address": {"city": "Pittsfield", "zip": "01201", "orig_address": "76 East St., Pittsfield, MA 01201", "county": "Berkshire County", "state": "MA", "address": "76 East St"}, "lat": 42.447538, "lng": -73.252509, "description": "This court serves all cities and towns of Berkshire County.\r\n\r\n"}, {"phone": "(508) 823-6588", "fax": "(508) 821-9563 ", "has_po_box": false, "name": "Bristol County Superior Court", "address": {"city": "Taunton", "zip": "02780", "orig_address": "9 Court St., Taunton, MA 02780", "county": "Bristol County", "state": "MA", "address": "9 Court St"}, "lat": 41.902681, "lng": -71.094186, "description": "The Bristol County Superior Court in Taunton serves the cities and towns of Bristol County. This location only handles criminal matters."}, {"phone": "(508) 491-3300", "fax": "(508) 821-9563", "has_po_box": false, "name": "Bristol County Superior Court", "address": {"city": "Fall River", "zip": "02721", "orig_address": "186 S. Main St., Fall River, MA 02720", "county": "Bristol County", "state": "MA", "address": "186 S Main St"}, "lat": 41.699452, "lng": -71.156553, "description": "The Bristol County Superior Court in Taunton serves the cities and towns of Bristol County. This location only handles criminal matters."}, {"phone": "(508) 996-2051", "fax": "", "has_po_box": false, "name": "Bristol County Superior Court", "address": {"city": "New Bedford", "zip": "02740", "orig_address": "441 County St., 1st Floor, New Bedford, MA 02740", "county": "Bristol County", "state": "MA", "address": "441 County St"}, "lat": 41.63406, "lng": -70.930851, "description": "The Bristol County Superior Court in Taunton serves the cities and towns of Bristol County. This location only handles criminal matters."}, {"phone": "(508) 627-4668", "fax": "", "has_po_box": false, "name": "Dukes County Superior Court", "address": {"city": "Edgartown", "zip": "02539", "orig_address": "81 Main St., P.O. Box 1267, Edgartown, MA 02539", "county": "Dukes County", "state": "MA", "address": "81 Main St., P.O. Box 1267, Edgartown, MA 02539"}, "lat": 41.390365, "lng": -70.514702, "description": "This court serves all the towns of Dukes County."}, {"phone": "(978) 744-5500 ", "fax": "(978) 741-0691", "has_po_box": false, "name": "Essex County Superior Court", "address": {"city": "Salem", "zip": "01970", "orig_address": "56 Federal St., Salem, MA 01970", "county": "Essex County", "state": "MA", "address": "56 Federal St"}, "lat": 42.523382, "lng": -70.896639, "description": "This court serves all cities and towns of Essex County."}, {"phone": "(978) 242-1900", "fax": "(978) 687-7869 ", "has_po_box": false, "name": "Essex County Superior Court", "address": {"city": "Lawrence", "zip": "01840", "orig_address": "43 Appleton Way, Lawrence, MA 01841", "county": "Essex County", "state": "MA", "address": "43 Appleton St"}, "lat": 42.708256, "lng": -71.159221, "description": "This court serves all cities and towns of Essex County."}, {"phone": "(978) 462-4474", "fax": "(978) 462-0432", "has_po_box": false, "name": "Essex County Superior Court", "address": {"city": "Newburyport", "zip": "01951", "orig_address": "145 High St., Newburyport, MA 01950", "county": "Essex County", "state": "MA", "address": "145 High St"}, "lat": 42.808171, "lng": -70.874044, "description": "This court serves all cities and towns of Essex County."}, {"phone": "(413) 775-7400", "fax": "(413) 774-4770 ", "has_po_box": false, "name": "Franklin County Superior Court", "address": {"city": "Greenfield", "zip": "01301", "orig_address": "43 Hope St., Greenfield, MA 01301", "county": "Franklin County", "state": "MA", "address": "43 Hope St"}, "lat": 42.586242, "lng": -72.59881, "description": "This court serves all the cities and towns of Franklin County."}, {"phone": "(413) 735-6016", "fax": "(413) 737-1611", "has_po_box": false, "name": "Hampden County Superior Court", "address": {"city": "Springfield", "zip": "01103", "orig_address": "50 State St., P.O. Box 559, Springfield, MA 01102", "county": "Hampden County", "state": "MA", "address": "50 State St"}, "lat": 42.09974, "lng": -72.589233, "description": "This court serves all cities and towns of Hampden County."}, {"phone": "(413) 584-5810", "fax": "(413) 586-8217", "has_po_box": false, "name": "Hampshire County Superior Court", "address": {"city": "Northampton", "zip": "01060", "orig_address": "15 Gothic St., P.O. Box 1119, Northampton, MA 01061", "county": "Hampshire County", "state": "MA", "address": "15 Gothic St"}, "lat": 42.319802, "lng": -72.63122, "description": "This court serves all cities and towns of Hampshire County."}, {"phone": "(781) 939-2700", "fax": "", "has_po_box": false, "name": "Middlesex County Superior Court", "address": {"city": "Woburn", "zip": "01801", "orig_address": "200 Trade Center, 2nd Floor, Woburn, MA 01801", "county": "Middlesex County", "state": "MA", "address": "200 Tradecenter Drive"}, "lat": 42.499978, "lng": -71.163233, "description": "This court serves all cities and towns of Middlesex County."}, {"phone": "", "fax": "", "has_po_box": false, "name": "Middlesex County Superior Court", "address": {"city": "Lowell", "zip": "01852", "orig_address": "360 Gorham St., Lowell, MA 01852", "county": "Middlesex County", "state": "MA", "address": "360 Gorham St"}, "lat": 42.637493, "lng": -71.308387, "description": "This court serves all cities and towns of Middlesex County."}, {"phone": "(508) 228-2559", "fax": "(508) 228-3725", "has_po_box": false, "name": "Nantucket County Superior Court", "address": {"city": "Nantucket", "zip": "02554", "orig_address": "16 Broad St., Nantucket, MA 02544", "county": "Nantucket County", "state": "MA", "address": "16 Broad St"}, "lat": 41.285066, "lng": -70.099046, "description": "This court serves all cities and towns in Nantucket County."}, {"phone": "(781) 326-1600", "fax": "", "has_po_box": false, "name": "Norfolk County Superior Court", "address": {"city": "Dedham", "zip": "02026", "orig_address": "650 High Street, Dedham, MA 02026", "county": "Norfolk County", "state": "MA", "address": "650 High St"}, "lat": 42.24859, "lng": -71.176202, "description": "This court serves all cities and towns in Norfolk County."}, {"phone": "(508) 747-8400", "fax": "(508) 830-0676", "has_po_box": false, "name": "Plymouth County Superior Court", "address": {"city": "Plymouth", "zip": "02360", "orig_address": "52 Obery St., Plymouth, MA 02630", "county": "Plymouth County", "state": "MA", "address": "52 Obery St"}, "lat": 41.939928, "lng": -70.649762, "description": "This court serves all cities and towns in Plymouth County. Criminal sessions are held in Brockton."}, {"phone": "(508) 583-8250", "fax": "(508) 584-5639", "has_po_box": false, "name": "Plymouth County Superior Court", "address": {"city": "Brockton", "zip": "02301", "orig_address": "72 Belmont St., Brockton, MA 02301", "county": "Plymouth County", "state": "MA", "address": "72 Belmont St"}, "lat": 42.079797, "lng": -71.022222, "description": "This court serves all cities and towns in Plymouth County. Criminal sessions are held in Brockton."}, {"phone": "", "fax": "", "has_po_box": false, "name": "Suffolk County Superior Court", "address": {"city": "Boston", "zip": "02108", "orig_address": "3 Pemberton Square, Boston, MA 02108", "county": "Suffolk County", "state": "MA", "address": "3 Pemberton Square"}, "lat": 42.359891, "lng": -71.061102, "description": "This court serves Boston, Winthrop, Chelsea, and Revere."}, {"phone": "(508) 831-2000", "fax": "(508) 798-3216", "has_po_box": false, "name": "Worcester County Superior Court", "address": {"city": "Worcester", "zip": "01608", "orig_address": "225 Main St., Worcester, MA 01608", "county": "Worcester County", "state": "MA", "address": "225 Main St"}, "lat": 42.26744, "lng": -71.799856, "description": "This court serves all cities and towns in Worcester County."}]